{
    "type": "FeatureCollection",
    "features": [
        {
            "type": "Feature",
            "geometry": {
                "type": "Point",
                "coordinates": [
                    44.58036601883801,
                    40.25474210120798,
                    0
                ]
            },
            "properties": {
                "name": "Vahik08"
            }
        },
        {
            "type": "Feature",
            "geometry": {
                "type": "Point",
                "coordinates": [
                    44.58040442379504,
                    40.25832757343186,
                    0
                ]
            },
            "properties": {
                "name": "MVM070"
            }
        },
        {
            "type": "Feature",
            "geometry": {
                "type": "Point",
                "coordinates": [
                    44.58476905660929,
                    40.25649133343527,
                    0
                ]
            },
            "properties": {
                "name": "xcho001"
            }
        },
        {
            "type": "Feature",
            "geometry": {
                "type": "Point",
                "coordinates": [
                    44.58501276828583,
                    40.25668218666303,
                    0
                ]
            },
            "properties": {
                "name": "vardgesyan"
            }
        },
        {
            "type": "Feature",
            "geometry": {
                "type": "Point",
                "coordinates": [
                    44.57987399652217,
                    40.25338173044544,
                    0
                ]
            },
            "properties": {
                "name": "lana"
            }
        },
        {
            "type": "Feature",
            "geometry": {
                "type": "Point",
                "coordinates": [
                    44.5795157020502,
                    40.2536803063564,
                    0
                ]
            },
            "properties": {
                "name": "buq1"
            }
        },
        {
            "type": "Feature",
            "geometry": {
                "type": "Point",
                "coordinates": [
                    44.57936601262201,
                    40.25414339210905,
                    0
                ]
            },
            "properties": {
                "name": "mojik"
            }
        },
        {
            "type": "Feature",
            "geometry": {
                "type": "Point",
                "coordinates": [
                    44.58688728865931,
                    40.25714195061148,
                    0
                ]
            },
            "properties": {
                "name": "hamen"
            }
        },
        {
            "type": "Feature",
            "geometry": {
                "type": "Point",
                "coordinates": [
                    44.58098265996095,
                    40.25719087042179,
                    0
                ]
            },
            "properties": {
                "name": "sahm"
            }
        },
        {
            "type": "Feature",
            "geometry": {
                "type": "Point",
                "coordinates": [
                    44.58166401383539,
                    40.25614160584588,
                    0
                ]
            },
            "properties": {
                "name": "goga"
            }
        },
        {
            "type": "Feature",
            "geometry": {
                "type": "Point",
                "coordinates": [
                    44.58120600015874,
                    40.2547186185126,
                    0
                ]
            },
            "properties": {
                "name": "Sofi"
            }
        },
        {
            "type": "Feature",
            "geometry": {
                "type": "Point",
                "coordinates": [
                    44.5816738351635,
                    40.25498832367985,
                    0
                ]
            },
            "properties": {
                "name": "garush"
            }
        },
        {
            "type": "Feature",
            "geometry": {
                "type": "Point",
                "coordinates": [
                    44.58295318387471,
                    40.25363229201285,
                    0
                ]
            },
            "properties": {
                "name": "zarzand"
            }
        },
        {
            "type": "Feature",
            "geometry": {
                "type": "Point",
                "coordinates": [
                    44.58761337851887,
                    40.25777781388445,
                    0
                ]
            },
            "properties": {
                "name": "margush"
            }
        },
        {
            "type": "Feature",
            "geometry": {
                "type": "Point",
                "coordinates": [
                    44.58327266111509,
                    40.25531958094097,
                    0
                ]
            },
            "properties": {
                "name": "alchka"
            }
        },
        {
            "type": "Feature",
            "geometry": {
                "type": "Point",
                "coordinates": [
                    44.58748118780741,
                    40.25594494928875,
                    0
                ]
            },
            "properties": {
                "name": "Hamlet"
            }
        },
        {
            "type": "Feature",
            "geometry": {
                "type": "Point",
                "coordinates": [
                    44.58720656240661,
                    40.25562815179951,
                    0
                ]
            },
            "properties": {
                "name": "palma"
            }
        },
        {
            "type": "Feature",
            "geometry": {
                "type": "Point",
                "coordinates": [
                    44.58721130390902,
                    40.25608731880259,
                    0
                ]
            },
            "properties": {
                "name": "evasweet"
            }
        },
        {
            "type": "Feature",
            "geometry": {
                "type": "Point",
                "coordinates": [
                    44.58814796882427,
                    40.25581738802764,
                    0
                ]
            },
            "properties": {
                "name": "lara"
            }
        },
        {
            "type": "Feature",
            "geometry": {
                "type": "Point",
                "coordinates": [
                    44.58032976617427,
                    40.25653564248605,
                    0
                ]
            },
            "properties": {
                "name": "malish"
            }
        },
        {
            "type": "Feature",
            "geometry": {
                "type": "Point",
                "coordinates": [
                    44.57914310545657,
                    40.25635990228779,
                    0
                ]
            },
            "properties": {
                "name": "giko"
            }
        },
        {
            "type": "Feature",
            "geometry": {
                "type": "Point",
                "coordinates": [
                    44.5800617157244,
                    40.25377269427224,
                    0
                ]
            },
            "properties": {
                "name": "maria"
            }
        },
        {
            "type": "Feature",
            "geometry": {
                "type": "Point",
                "coordinates": [
                    44.57949335283357,
                    40.25766712431511,
                    0
                ]
            },
            "properties": {
                "name": "leonid"
            }
        },
        {
            "type": "Feature",
            "geometry": {
                "type": "Point",
                "coordinates": [
                    44.58015462741216,
                    40.25792677513992,
                    0
                ]
            },
            "properties": {
                "name": "valya"
            }
        },
        {
            "type": "Feature",
            "geometry": {
                "type": "Point",
                "coordinates": [
                    44.57974485507018,
                    40.25752564865086,
                    0
                ]
            },
            "properties": {
                "name": "tiro"
            }
        },
        {
            "type": "Feature",
            "geometry": {
                "type": "Point",
                "coordinates": [
                    44.5798782923371,
                    40.25720805049356,
                    0
                ]
            },
            "properties": {
                "name": "ego"
            }
        },
        {
            "type": "Feature",
            "geometry": {
                "type": "Point",
                "coordinates": [
                    44.58640536674979,
                    40.25737610108175,
                    0
                ]
            },
            "properties": {
                "name": "jivanik6"
            }
        },
        {
            "type": "Feature",
            "geometry": {
                "type": "Point",
                "coordinates": [
                    44.58629716768687,
                    40.25706130759112,
                    0
                ]
            },
            "properties": {
                "name": "sedul1"
            }
        },
        {
            "type": "Feature",
            "geometry": {
                "type": "Point",
                "coordinates": [
                    44.5844126923039,
                    40.25439452933679,
                    0
                ]
            },
            "properties": {
                "name": "bodya17"
            }
        },
        {
            "type": "Feature",
            "geometry": {
                "type": "Point",
                "coordinates": [
                    44.58029774706185,
                    40.25352628045929,
                    0
                ]
            },
            "properties": {
                "name": "arsen1975"
            }
        },
        {
            "type": "Feature",
            "geometry": {
                "type": "Point",
                "coordinates": [
                    44.58198358975404,
                    40.25687510576184,
                    0
                ]
            },
            "properties": {
                "name": "luna777"
            }
        },
        {
            "type": "Feature",
            "geometry": {
                "type": "Point",
                "coordinates": [
                    44.58134584039396,
                    40.25402155686341,
                    0
                ]
            },
            "properties": {
                "name": "henul"
            }
        },
        {
            "type": "Feature",
            "geometry": {
                "type": "Point",
                "coordinates": [
                    44.58178112218017,
                    40.25383132020256,
                    0
                ]
            },
            "properties": {
                "name": "luska"
            }
        },
        {
            "type": "Feature",
            "geometry": {
                "type": "Point",
                "coordinates": [
                    44.58106645630867,
                    40.25383976716186,
                    0
                ]
            },
            "properties": {
                "name": "arsh1991"
            }
        },
        {
            "type": "Feature",
            "geometry": {
                "type": "Point",
                "coordinates": [
                    44.58168600569678,
                    40.25354762976508,
                    0
                ]
            },
            "properties": {
                "name": "lusvrd"
            }
        },
        {
            "type": "Feature",
            "geometry": {
                "type": "Point",
                "coordinates": [
                    44.58029393973928,
                    40.25368015425297,
                    0
                ]
            },
            "properties": {
                "name": "Untitled Placemark"
            }
        },
        {
            "type": "Feature",
            "geometry": {
                "type": "Point",
                "coordinates": [
                    44.57879249738635,
                    40.25570766314802,
                    0
                ]
            },
            "properties": {
                "name": "rubik11"
            }
        },
        {
            "type": "Feature",
            "geometry": {
                "type": "Point",
                "coordinates": [
                    44.584739990833,
                    40.25537022146936,
                    0
                ]
            },
            "properties": {
                "name": "arame3"
            }
        },
        {
            "type": "Feature",
            "geometry": {
                "type": "Point",
                "coordinates": [
                    44.58523062775075,
                    40.25505650222286,
                    0
                ]
            },
            "properties": {
                "name": "qajatur"
            }
        },
        {
            "type": "Feature",
            "geometry": {
                "type": "Point",
                "coordinates": [
                    44.58529827734868,
                    40.2547324408249,
                    0
                ]
            },
            "properties": {
                "name": "lusi2009"
            }
        },
        {
            "type": "Feature",
            "geometry": {
                "type": "Point",
                "coordinates": [
                    44.58494332050009,
                    40.25522947784958,
                    0
                ]
            },
            "properties": {
                "name": "syuzan79"
            }
        },
        {
            "type": "Feature",
            "geometry": {
                "type": "Point",
                "coordinates": [
                    44.58347841265901,
                    40.25801513620682,
                    0
                ]
            },
            "properties": {
                "name": "luys29"
            }
        },
        {
            "type": "Feature",
            "geometry": {
                "type": "Point",
                "coordinates": [
                    44.58534079363971,
                    40.25376015181908,
                    0
                ]
            },
            "properties": {
                "name": "hayk19"
            }
        },
        {
            "type": "Feature",
            "geometry": {
                "type": "Point",
                "coordinates": [
                    44.58174344712208,
                    40.25805225694528,
                    0
                ]
            },
            "properties": {
                "name": "tamar84"
            }
        },
        {
            "type": "Feature",
            "geometry": {
                "type": "Point",
                "coordinates": [
                    44.58496325462957,
                    40.2550545211959,
                    0
                ]
            },
            "properties": {
                "name": "vardan81"
            }
        },
        {
            "type": "Feature",
            "geometry": {
                "type": "Point",
                "coordinates": [
                    44.58523657509639,
                    40.25419339711025,
                    0
                ]
            },
            "properties": {
                "name": "vardan1993"
            }
        },
        {
            "type": "Feature",
            "geometry": {
                "type": "Point",
                "coordinates": [
                    44.58320408510964,
                    40.25800857192929,
                    0
                ]
            },
            "properties": {
                "name": "marieta11"
            }
        },
        {
            "type": "Feature",
            "geometry": {
                "type": "Point",
                "coordinates": [
                    44.580460746802,
                    40.25643766947405,
                    0
                ]
            },
            "properties": {
                "name": "arinka2010"
            }
        },
        {
            "type": "Feature",
            "geometry": {
                "type": "Point",
                "coordinates": [
                    44.58366395760213,
                    40.2569929482096,
                    0
                ]
            },
            "properties": {
                "name": "haykuhi17"
            }
        },
        {
            "type": "Feature",
            "geometry": {
                "type": "Point",
                "coordinates": [
                    44.58480823685933,
                    40.25462907016118,
                    0
                ]
            },
            "properties": {
                "name": "Sargis1986"
            }
        },
        {
            "type": "Feature",
            "geometry": {
                "type": "Point",
                "coordinates": [
                    44.58583563799022,
                    40.25479187293101,
                    0
                ]
            },
            "properties": {
                "name": "gevysh07"
            }
        },
        {
            "type": "Feature",
            "geometry": {
                "type": "Point",
                "coordinates": [
                    44.58907548374622,
                    40.26065959361986,
                    0
                ]
            },
            "properties": {
                "name": "arturik13"
            }
        },
        {
            "type": "Feature",
            "geometry": {
                "type": "Point",
                "coordinates": [
                    44.58038329134961,
                    40.2526871747375,
                    0
                ]
            },
            "properties": {
                "name": "barsegh1"
            }
        },
        {
            "type": "Feature",
            "geometry": {
                "type": "Point",
                "coordinates": [
                    44.58533104763436,
                    40.25826013130659,
                    0
                ]
            },
            "properties": {
                "name": "sona1996"
            }
        },
        {
            "type": "Feature",
            "geometry": {
                "type": "Point",
                "coordinates": [
                    44.5799869097245,
                    40.25264594234229,
                    0
                ]
            },
            "properties": {
                "name": "Levgrig"
            }
        },
        {
            "type": "Feature",
            "geometry": {
                "type": "Point",
                "coordinates": [
                    44.58521582250345,
                    40.25533430764951,
                    0
                ]
            },
            "properties": {
                "name": "dav78"
            }
        },
        {
            "type": "Feature",
            "geometry": {
                "type": "Point",
                "coordinates": [
                    44.58424865623682,
                    40.25450827512402,
                    0
                ]
            },
            "properties": {
                "name": "Untitled Placemark"
            }
        },
        {
            "type": "Feature",
            "geometry": {
                "type": "Point",
                "coordinates": [
                    44.58228609348526,
                    40.25506431492348,
                    0
                ]
            },
            "properties": {
                "name": "hayk1969"
            }
        },
        {
            "type": "Feature",
            "geometry": {
                "type": "Point",
                "coordinates": [
                    44.58664022827788,
                    40.25829710511627,
                    0
                ]
            },
            "properties": {
                "name": "aram8080"
            }
        },
        {
            "type": "Feature",
            "geometry": {
                "type": "Point",
                "coordinates": [
                    44.58324348234703,
                    40.25420536229592,
                    0
                ]
            },
            "properties": {
                "name": "varduhi76"
            }
        },
        {
            "type": "Feature",
            "geometry": {
                "type": "Point",
                "coordinates": [
                    44.58201886601313,
                    40.25411258198957,
                    0
                ]
            },
            "properties": {
                "name": "pavelkaren"
            }
        },
        {
            "type": "Feature",
            "geometry": {
                "type": "Point",
                "coordinates": [
                    44.58345311983178,
                    40.25637109384645,
                    0
                ]
            },
            "properties": {
                "name": "edgar97"
            }
        },
        {
            "type": "Feature",
            "geometry": {
                "type": "Point",
                "coordinates": [
                    44.58258607932599,
                    40.25463437480325,
                    0
                ]
            },
            "properties": {
                "name": "anahit12"
            }
        },
        {
            "type": "Feature",
            "geometry": {
                "type": "Point",
                "coordinates": [
                    44.58321495357384,
                    40.25468847222584,
                    0
                ]
            },
            "properties": {
                "name": "meruj95"
            }
        },
        {
            "type": "Feature",
            "geometry": {
                "type": "Point",
                "coordinates": [
                    44.5830024648655,
                    40.2572610434234,
                    0
                ]
            },
            "properties": {
                "name": "karen19"
            }
        },
        {
            "type": "Feature",
            "geometry": {
                "type": "Point",
                "coordinates": [
                    44.59047206452786,
                    40.26081871692742,
                    0
                ]
            },
            "properties": {
                "name": "emilya68"
            }
        },
        {
            "type": "Feature",
            "geometry": {
                "type": "Point",
                "coordinates": [
                    44.59090642642793,
                    40.26009057352579,
                    0
                ]
            },
            "properties": {
                "name": "hmikoyan"
            }
        },
        {
            "type": "Feature",
            "geometry": {
                "type": "LineString",
                "coordinates": [
                    [
                        44.58070083596427,
                        40.25320457793376,
                        0
                    ],
                    [
                        44.57984794305929,
                        40.25338616036365,
                        0
                    ],
                    [
                        44.57972825631683,
                        40.253590890901,
                        0
                    ],
                    [
                        44.57944647560315,
                        40.25336577106609,
                        0
                    ]
                ]
            },
            "properties": {
                "name": "192.168.111.101"
            }
        },
        {
            "type": "Feature",
            "geometry": {
                "type": "LineString",
                "coordinates": [
                    [
                        44.57972548398493,
                        40.25358887460612,
                        0
                    ],
                    [
                        44.58008339142857,
                        40.25377587116473,
                        0
                    ]
                ]
            },
            "properties": {
                "name": "192.168.111.101"
            }
        },
        {
            "type": "Feature",
            "geometry": {
                "type": "LineString",
                "coordinates": [
                    [
                        44.57972811487139,
                        40.2535847679769,
                        0
                    ],
                    [
                        44.57936236130193,
                        40.25414780848507,
                        0
                    ]
                ]
            },
            "properties": {
                "name": "192.168.111.101"
            }
        },
        {
            "type": "Feature",
            "geometry": {
                "type": "LineString",
                "coordinates": [
                    [
                        44.58028571077924,
                        40.25367880600422,
                        0
                    ],
                    [
                        44.57984853056018,
                        40.25338952820321,
                        0
                    ],
                    [
                        44.58016459605655,
                        40.25316964212613,
                        0
                    ]
                ]
            },
            "properties": {
                "name": "192.168.111.101"
            }
        },
        {
            "type": "Feature",
            "geometry": {
                "type": "LineString",
                "coordinates": [
                    [
                        44.57985118077736,
                        40.25338742791223,
                        0
                    ],
                    [
                        44.58029784975776,
                        40.25353787620609,
                        0
                    ],
                    [
                        44.58109121783134,
                        40.25382255044123,
                        0
                    ],
                    [
                        44.58136131497609,
                        40.25396515134975,
                        0
                    ],
                    [
                        44.58179302735554,
                        40.25382591581885,
                        0
                    ],
                    [
                        44.58203361132958,
                        40.2541156987247,
                        0
                    ],
                    [
                        44.58225811750567,
                        40.25431777570989,
                        0
                    ],
                    [
                        44.58259195479315,
                        40.25465029024824,
                        0
                    ],
                    [
                        44.58324987373633,
                        40.25441011275256,
                        0
                    ],
                    [
                        44.58325832910482,
                        40.25415676892036,
                        0
                    ]
                ]
            },
            "properties": {
                "name": "192.168.111.101"
            }
        },
        {
            "type": "Feature",
            "geometry": {
                "type": "LineString",
                "coordinates": [
                    [
                        44.58179248037274,
                        40.2538262538565,
                        0
                    ],
                    [
                        44.58168217090088,
                        40.2535396752936,
                        0
                    ]
                ]
            },
            "properties": {
                "name": "192.168.111.101"
            }
        },
        {
            "type": "Feature",
            "geometry": {
                "type": "LineString",
                "coordinates": [
                    [
                        44.58259184934647,
                        40.25464684748577,
                        0
                    ],
                    [
                        44.58229836479793,
                        40.25507725406339,
                        0
                    ]
                ]
            },
            "properties": {
                "name": "192.168.111.101"
            }
        },
        {
            "type": "Feature",
            "geometry": {
                "type": "LineString",
                "coordinates": [
                    [
                        44.58325280722682,
                        40.25440838136804,
                        0
                    ],
                    [
                        44.58363733420168,
                        40.254595324793,
                        0
                    ],
                    [
                        44.58322061190871,
                        40.25471352218354,
                        0
                    ]
                ]
            },
            "properties": {
                "name": "192.168.111.101"
            }
        },
        {
            "type": "Feature",
            "geometry": {
                "type": "Point",
                "coordinates": [
                    44.58362280422732,
                    40.25458626098444,
                    0
                ]
            },
            "properties": {
                "name": "mkrtich"
            }
        },
        {
            "type": "Feature",
            "geometry": {
                "type": "Point",
                "coordinates": [
                    44.41787542452521,
                    40.13668022403407,
                    0
                ]
            },
            "properties": {
                "name": "qnet"
            }
        },
        {
            "type": "Feature",
            "geometry": {
                "type": "Point",
                "coordinates": [
                    44.41701094053695,
                    40.13504618699903,
                    0
                ]
            },
            "properties": {
                "name": "viro90"
            }
        },
        {
            "type": "Feature",
            "geometry": {
                "type": "Point",
                "coordinates": [
                    44.41532803633189,
                    40.13617652942941,
                    0
                ]
            },
            "properties": {
                "name": "hovo95"
            }
        },
        {
            "type": "Feature",
            "geometry": {
                "type": "Point",
                "coordinates": [
                    44.41216645597347,
                    40.1344913183352,
                    0
                ]
            },
            "properties": {
                "name": "Vigen"
            }
        },
        {
            "type": "Feature",
            "geometry": {
                "type": "Point",
                "coordinates": [
                    44.41151180228599,
                    40.13422075589293,
                    0
                ]
            },
            "properties": {
                "name": "Vahan76"
            }
        },
        {
            "type": "Feature",
            "geometry": {
                "type": "Point",
                "coordinates": [
                    44.41251453773996,
                    40.13481962861417,
                    0
                ]
            },
            "properties": {
                "name": "Sako02"
            }
        },
        {
            "type": "Feature",
            "geometry": {
                "type": "Point",
                "coordinates": [
                    44.41792438986903,
                    40.13556903616455,
                    0
                ]
            },
            "properties": {
                "name": "gexamik"
            }
        },
        {
            "type": "Feature",
            "geometry": {
                "type": "Point",
                "coordinates": [
                    44.41565919660467,
                    40.13348554247121,
                    0
                ]
            },
            "properties": {
                "name": "Gagik76"
            }
        },
        {
            "type": "Feature",
            "geometry": {
                "type": "Point",
                "coordinates": [
                    44.41621805777063,
                    40.1331430209416,
                    0
                ]
            },
            "properties": {
                "name": "Alik1994"
            }
        },
        {
            "type": "Feature",
            "geometry": {
                "type": "Point",
                "coordinates": [
                    44.41586699925707,
                    40.13335953810972,
                    0
                ]
            },
            "properties": {
                "name": "elmira_k82"
            }
        },
        {
            "type": "Feature",
            "geometry": {
                "type": "Point",
                "coordinates": [
                    44.41640477014649,
                    40.1330276564908,
                    0
                ]
            },
            "properties": {
                "name": "Armani"
            }
        },
        {
            "type": "Feature",
            "geometry": {
                "type": "Point",
                "coordinates": [
                    44.41495314324409,
                    40.13552732616871,
                    0
                ]
            },
            "properties": {
                "name": "Gev90"
            }
        },
        {
            "type": "Feature",
            "geometry": {
                "type": "Point",
                "coordinates": [
                    44.41633172100502,
                    40.1340649468299,
                    0
                ]
            },
            "properties": {
                "name": "Tiko92"
            }
        },
        {
            "type": "Feature",
            "geometry": {
                "type": "Point",
                "coordinates": [
                    44.41458235604627,
                    40.13319904629478,
                    0
                ]
            },
            "properties": {
                "name": "Vanik87"
            }
        },
        {
            "type": "Feature",
            "geometry": {
                "type": "Point",
                "coordinates": [
                    44.41481538547536,
                    40.13306452749743,
                    0
                ]
            },
            "properties": {
                "name": "Karen79, pato"
            }
        },
        {
            "type": "Feature",
            "geometry": {
                "type": "Point",
                "coordinates": [
                    44.41500609824022,
                    40.13294299594431,
                    0
                ]
            },
            "properties": {
                "name": "Manukyan"
            }
        },
        {
            "type": "Feature",
            "geometry": {
                "type": "Point",
                "coordinates": [
                    44.41514324104571,
                    40.13285907639375,
                    0
                ]
            },
            "properties": {
                "name": "Khumaryan"
            }
        },
        {
            "type": "Feature",
            "geometry": {
                "type": "Point",
                "coordinates": [
                    44.41570099763964,
                    40.13248159886497,
                    0
                ]
            },
            "properties": {
                "name": "Gnel64"
            }
        },
        {
            "type": "Feature",
            "geometry": {
                "type": "Point",
                "coordinates": [
                    44.41713193100932,
                    40.13481289930338,
                    0
                ]
            },
            "properties": {
                "name": "galya"
            }
        },
        {
            "type": "Feature",
            "geometry": {
                "type": "Point",
                "coordinates": [
                    44.41357262426828,
                    40.13608635188181,
                    0
                ]
            },
            "properties": {
                "name": "Harut0199"
            }
        },
        {
            "type": "Feature",
            "geometry": {
                "type": "Point",
                "coordinates": [
                    44.41424587105713,
                    40.13334674337023,
                    0
                ]
            },
            "properties": {
                "name": "Luiza"
            }
        },
        {
            "type": "Feature",
            "geometry": {
                "type": "Point",
                "coordinates": [
                    44.41423970752712,
                    40.13310796337907,
                    0
                ]
            },
            "properties": {
                "name": "Compas"
            }
        },
        {
            "type": "Feature",
            "geometry": {
                "type": "Point",
                "coordinates": [
                    44.4180462139593,
                    40.13469692699419,
                    0
                ]
            },
            "properties": {
                "name": "Jivan"
            }
        },
        {
            "type": "Feature",
            "geometry": {
                "type": "Point",
                "coordinates": [
                    44.41448304411107,
                    40.13657901675479,
                    0
                ]
            },
            "properties": {
                "name": "Karen92"
            }
        },
        {
            "type": "Feature",
            "geometry": {
                "type": "Point",
                "coordinates": [
                    44.41472751690276,
                    40.13682627634338,
                    0
                ]
            },
            "properties": {
                "name": "Gor1979"
            }
        },
        {
            "type": "Feature",
            "geometry": {
                "type": "Point",
                "coordinates": [
                    44.41826519513447,
                    40.13540344051161,
                    0
                ]
            },
            "properties": {
                "name": "Mariamvzgo"
            }
        },
        {
            "type": "Feature",
            "geometry": {
                "type": "Point",
                "coordinates": [
                    44.41527898122862,
                    40.13592952985965,
                    0
                ]
            },
            "properties": {
                "name": "Vlo96"
            }
        },
        {
            "type": "Feature",
            "geometry": {
                "type": "Point",
                "coordinates": [
                    44.41814255683788,
                    40.13546738269826,
                    0
                ]
            },
            "properties": {
                "name": "Tiko79"
            }
        },
        {
            "type": "Feature",
            "geometry": {
                "type": "Point",
                "coordinates": [
                    44.41438573876715,
                    40.13180646720122,
                    0
                ]
            },
            "properties": {
                "name": "girq"
            }
        },
        {
            "type": "Feature",
            "geometry": {
                "type": "Point",
                "coordinates": [
                    44.41441785527568,
                    40.13207391200764,
                    0
                ]
            },
            "properties": {
                "name": "Grigoryan85"
            }
        },
        {
            "type": "Feature",
            "geometry": {
                "type": "Point",
                "coordinates": [
                    44.41487133657533,
                    40.13398175932439,
                    0
                ]
            },
            "properties": {
                "name": "Pegas"
            }
        },
        {
            "type": "Feature",
            "geometry": {
                "type": "Point",
                "coordinates": [
                    44.41566721555315,
                    40.13627244347806,
                    0
                ]
            },
            "properties": {
                "name": "vahagn99"
            }
        },
        {
            "type": "Feature",
            "geometry": {
                "type": "Point",
                "coordinates": [
                    44.41594866325969,
                    40.13649912641738,
                    0
                ]
            },
            "properties": {
                "name": "armanano"
            }
        },
        {
            "type": "Feature",
            "geometry": {
                "type": "Point",
                "coordinates": [
                    44.41398753412107,
                    40.13300044312985,
                    0
                ]
            },
            "properties": {
                "name": "ninel"
            }
        },
        {
            "type": "Feature",
            "geometry": {
                "type": "Point",
                "coordinates": [
                    44.41727282672511,
                    40.13523537161343,
                    0
                ]
            },
            "properties": {
                "name": "matanyan"
            }
        },
        {
            "type": "Feature",
            "geometry": {
                "type": "Point",
                "coordinates": [
                    44.41378215435907,
                    40.13249069138681,
                    0
                ]
            },
            "properties": {
                "name": "arturedo"
            }
        },
        {
            "type": "Feature",
            "geometry": {
                "type": "Point",
                "coordinates": [
                    44.41552462652083,
                    40.13230820885193,
                    0
                ]
            },
            "properties": {
                "name": "davit30"
            }
        },
        {
            "type": "Feature",
            "geometry": {
                "type": "Point",
                "coordinates": [
                    44.41671980040957,
                    40.13475396088865,
                    0
                ]
            },
            "properties": {
                "name": "lorecyan"
            }
        },
        {
            "type": "Feature",
            "geometry": {
                "type": "Point",
                "coordinates": [
                    44.41502977761354,
                    40.13232539187612,
                    0
                ]
            },
            "properties": {
                "name": "irina"
            }
        },
        {
            "type": "Feature",
            "geometry": {
                "type": "Point",
                "coordinates": [
                    44.41650876408215,
                    40.13455856525337,
                    0
                ]
            },
            "properties": {
                "name": "grno96"
            }
        },
        {
            "type": "Feature",
            "geometry": {
                "type": "Point",
                "coordinates": [
                    44.41603885799304,
                    40.13328013512317,
                    0
                ]
            },
            "properties": {
                "name": "husik"
            }
        },
        {
            "type": "Feature",
            "geometry": {
                "type": "Point",
                "coordinates": [
                    44.41546319926155,
                    40.13505208231367,
                    0
                ]
            },
            "properties": {
                "name": "judo"
            }
        },
        {
            "type": "Feature",
            "geometry": {
                "type": "Point",
                "coordinates": [
                    44.41537308912938,
                    40.13498972348692,
                    0
                ]
            },
            "properties": {
                "name": "roki"
            }
        },
        {
            "type": "Feature",
            "geometry": {
                "type": "Point",
                "coordinates": [
                    44.41541017799012,
                    40.13519301591204,
                    0
                ]
            },
            "properties": {
                "name": "qnet1"
            }
        },
        {
            "type": "Feature",
            "geometry": {
                "type": "Point",
                "coordinates": [
                    44.4155371210808,
                    40.13260084193672,
                    0
                ]
            },
            "properties": {
                "name": "gigant"
            }
        },
        {
            "type": "Feature",
            "geometry": {
                "type": "Point",
                "coordinates": [
                    44.41590494084277,
                    40.1336769573628,
                    0
                ]
            },
            "properties": {
                "name": "senik84"
            }
        },
        {
            "type": "Feature",
            "geometry": {
                "type": "Point",
                "coordinates": [
                    44.41503918232597,
                    40.1385685401024,
                    0
                ]
            },
            "properties": {
                "name": "arayik22"
            }
        },
        {
            "type": "Feature",
            "geometry": {
                "type": "Point",
                "coordinates": [
                    44.41070390939876,
                    40.13358447557452,
                    0
                ]
            },
            "properties": {
                "name": "ananyan78"
            }
        },
        {
            "type": "Feature",
            "geometry": {
                "type": "Point",
                "coordinates": [
                    44.41585256401369,
                    40.13390592868029,
                    0
                ]
            },
            "properties": {
                "name": "erem88"
            }
        },
        {
            "type": "Feature",
            "geometry": {
                "type": "Point",
                "coordinates": [
                    44.41390466804403,
                    40.13256609597328,
                    0
                ]
            },
            "properties": {
                "name": "garik89"
            }
        },
        {
            "type": "Feature",
            "geometry": {
                "type": "Point",
                "coordinates": [
                    44.41417147888141,
                    40.13627767863346,
                    0
                ]
            },
            "properties": {
                "name": "ani97"
            }
        },
        {
            "type": "Feature",
            "geometry": {
                "type": "Point",
                "coordinates": [
                    44.41452609110654,
                    40.13547694973384,
                    0
                ]
            },
            "properties": {
                "name": "serog CHMIACNEL ANASUNI CNUNDA"
            }
        },
        {
            "type": "Feature",
            "geometry": {
                "type": "Point",
                "coordinates": [
                    44.4141623403782,
                    40.13490139155295,
                    0
                ]
            },
            "properties": {
                "name": "varsik2002"
            }
        },
        {
            "type": "Feature",
            "geometry": {
                "type": "Point",
                "coordinates": [
                    44.41427155800766,
                    40.13498751725231,
                    0
                ]
            },
            "properties": {
                "name": "vigen01"
            }
        },
        {
            "type": "Feature",
            "geometry": {
                "type": "Point",
                "coordinates": [
                    44.41470919423625,
                    40.13565920887839,
                    0
                ]
            },
            "properties": {
                "name": "armen91"
            }
        },
        {
            "type": "Feature",
            "geometry": {
                "type": "Point",
                "coordinates": [
                    44.41843267342593,
                    40.1372440727795,
                    0
                ]
            },
            "properties": {
                "name": "sarqis93"
            }
        },
        {
            "type": "Feature",
            "geometry": {
                "type": "Point",
                "coordinates": [
                    44.41471193361866,
                    40.13538890894434,
                    0
                ]
            },
            "properties": {
                "name": "goro10"
            }
        },
        {
            "type": "Feature",
            "geometry": {
                "type": "Point",
                "coordinates": [
                    44.41549278254334,
                    40.13638084058733,
                    0
                ]
            },
            "properties": {
                "name": "gayane77"
            }
        },
        {
            "type": "Feature",
            "geometry": {
                "type": "Point",
                "coordinates": [
                    44.416098107592,
                    40.13417346064735,
                    0
                ]
            },
            "properties": {
                "name": "maugli"
            }
        },
        {
            "type": "Feature",
            "geometry": {
                "type": "Point",
                "coordinates": [
                    44.41843237818966,
                    40.13528998937449,
                    0
                ]
            },
            "properties": {
                "name": "harut99"
            }
        },
        {
            "type": "Feature",
            "geometry": {
                "type": "Point",
                "coordinates": [
                    44.41259,
                    40.121651,
                    0
                ]
            },
            "properties": {
                "name": "Pasha,"
            }
        },
        {
            "type": "Feature",
            "geometry": {
                "type": "Point",
                "coordinates": [
                    44.413986,
                    40.126671,
                    0
                ]
            },
            "properties": {
                "name": "Xachik8717"
            }
        },
        {
            "type": "Feature",
            "geometry": {
                "type": "Point",
                "coordinates": [
                    44.412388,
                    40.125175,
                    0
                ]
            },
            "properties": {
                "name": "Vahan1989"
            }
        },
        {
            "type": "Feature",
            "geometry": {
                "type": "Point",
                "coordinates": [
                    44.41937737865963,
                    40.13021755845397,
                    0
                ]
            },
            "properties": {
                "name": "Africa"
            }
        },
        {
            "type": "Feature",
            "geometry": {
                "type": "Point",
                "coordinates": [
                    44.420746,
                    40.124325,
                    0
                ]
            },
            "properties": {
                "name": "Nshan455"
            }
        },
        {
            "type": "Feature",
            "geometry": {
                "type": "Point",
                "coordinates": [
                    44.420551,
                    40.130501,
                    0
                ]
            },
            "properties": {
                "name": "David88"
            }
        },
        {
            "type": "Feature",
            "geometry": {
                "type": "Point",
                "coordinates": [
                    44.422417,
                    40.129192,
                    0
                ]
            },
            "properties": {
                "name": "Razmik55"
            }
        },
        {
            "type": "Feature",
            "geometry": {
                "type": "Point",
                "coordinates": [
                    44.421883,
                    40.132797,
                    0
                ]
            },
            "properties": {
                "name": "Arcrun83"
            }
        },
        {
            "type": "Feature",
            "geometry": {
                "type": "Point",
                "coordinates": [
                    44.416767,
                    40.126736,
                    0
                ]
            },
            "properties": {
                "name": "Gegham51"
            }
        },
        {
            "type": "Feature",
            "geometry": {
                "type": "Point",
                "coordinates": [
                    44.422268,
                    40.129517,
                    0
                ]
            },
            "properties": {
                "name": "Arsen50001"
            }
        },
        {
            "type": "Feature",
            "geometry": {
                "type": "Point",
                "coordinates": [
                    44.421474,
                    40.13187,
                    0
                ]
            },
            "properties": {
                "name": "Armen94"
            }
        },
        {
            "type": "Feature",
            "geometry": {
                "type": "Point",
                "coordinates": [
                    44.409836,
                    40.122795,
                    0
                ]
            },
            "properties": {
                "name": "Suto"
            }
        },
        {
            "type": "Feature",
            "geometry": {
                "type": "Point",
                "coordinates": [
                    44.421127,
                    40.127708,
                    0
                ]
            },
            "properties": {
                "name": "Gegham94"
            }
        },
        {
            "type": "Feature",
            "geometry": {
                "type": "Point",
                "coordinates": [
                    44.410908,
                    40.12392,
                    0
                ]
            },
            "properties": {
                "name": "Mamo"
            }
        },
        {
            "type": "Feature",
            "geometry": {
                "type": "Point",
                "coordinates": [
                    44.41973347019791,
                    40.12430798318083,
                    0
                ]
            },
            "properties": {
                "name": "Lusi"
            }
        },
        {
            "type": "Feature",
            "geometry": {
                "type": "Point",
                "coordinates": [
                    44.42283279893552,
                    40.12792785909146,
                    0
                ]
            },
            "properties": {
                "name": "50001"
            }
        },
        {
            "type": "Feature",
            "geometry": {
                "type": "Point",
                "coordinates": [
                    44.4154710526285,
                    40.12525675377987,
                    0
                ]
            },
            "properties": {
                "name": "Ghukasavan"
            }
        },
        {
            "type": "Feature",
            "geometry": {
                "type": "Point",
                "coordinates": [
                    44.42197053801292,
                    40.13180990501947,
                    0
                ]
            },
            "properties": {
                "name": "Arkoksia"
            }
        },
        {
            "type": "Feature",
            "geometry": {
                "type": "Point",
                "coordinates": [
                    44.42091720354637,
                    40.13027434408782,
                    0
                ]
            },
            "properties": {
                "name": "Anahit51"
            }
        },
        {
            "type": "Feature",
            "geometry": {
                "type": "Point",
                "coordinates": [
                    44.41866428030625,
                    40.12572001419993,
                    0
                ]
            },
            "properties": {
                "name": "Hke"
            }
        },
        {
            "type": "Feature",
            "geometry": {
                "type": "Point",
                "coordinates": [
                    44.41877813457478,
                    40.12548929527071,
                    0
                ]
            },
            "properties": {
                "name": "Vahagn"
            }
        },
        {
            "type": "Feature",
            "geometry": {
                "type": "Point",
                "coordinates": [
                    44.41934224404154,
                    40.12884181908039,
                    0
                ]
            },
            "properties": {
                "name": "Karapet"
            }
        },
        {
            "type": "Feature",
            "geometry": {
                "type": "Point",
                "coordinates": [
                    44.42100900421136,
                    40.12886287605179,
                    0
                ]
            },
            "properties": {
                "name": "Safary"
            }
        },
        {
            "type": "Feature",
            "geometry": {
                "type": "Point",
                "coordinates": [
                    44.42126359289172,
                    40.12886366591062,
                    0
                ]
            },
            "properties": {
                "name": "Alen"
            }
        },
        {
            "type": "Feature",
            "geometry": {
                "type": "Point",
                "coordinates": [
                    44.42101536935324,
                    40.12903648833937,
                    0
                ]
            },
            "properties": {
                "name": "Sargsyan2"
            }
        },
        {
            "type": "Feature",
            "geometry": {
                "type": "Point",
                "coordinates": [
                    44.42099167351054,
                    40.12922166468872,
                    0
                ]
            },
            "properties": {
                "name": "Sofa93"
            }
        },
        {
            "type": "Feature",
            "geometry": {
                "type": "Point",
                "coordinates": [
                    44.42153283651871,
                    40.13341094436855,
                    0
                ]
            },
            "properties": {
                "name": "vahan987"
            }
        },
        {
            "type": "Feature",
            "geometry": {
                "type": "Point",
                "coordinates": [
                    44.41493056694063,
                    40.1270323273581,
                    0
                ]
            },
            "properties": {
                "name": "arevarmin"
            }
        },
        {
            "type": "Feature",
            "geometry": {
                "type": "Point",
                "coordinates": [
                    44.42847646138696,
                    40.13292101851679,
                    0
                ]
            },
            "properties": {
                "name": "vespgas"
            }
        },
        {
            "type": "Feature",
            "geometry": {
                "type": "Point",
                "coordinates": [
                    44.42161185729413,
                    40.12674603258519,
                    0
                ]
            },
            "properties": {
                "name": "narine0616"
            }
        },
        {
            "type": "Feature",
            "geometry": {
                "type": "Point",
                "coordinates": [
                    44.4183172363215,
                    40.12678550846634,
                    0
                ]
            },
            "properties": {
                "name": "piliposyan"
            }
        },
        {
            "type": "Feature",
            "geometry": {
                "type": "Point",
                "coordinates": [
                    44.4193860731002,
                    40.12663571663563,
                    0
                ]
            },
            "properties": {
                "name": "Vahag78"
            }
        },
        {
            "type": "Feature",
            "geometry": {
                "type": "Point",
                "coordinates": [
                    44.41851514264238,
                    40.12624533408202,
                    0
                ]
            },
            "properties": {
                "name": "berik"
            }
        },
        {
            "type": "Feature",
            "geometry": {
                "type": "Point",
                "coordinates": [
                    44.41956540052316,
                    40.12903622549946,
                    0
                ]
            },
            "properties": {
                "name": "abraham"
            }
        },
        {
            "type": "Feature",
            "geometry": {
                "type": "Point",
                "coordinates": [
                    44.41963461506077,
                    40.1300476245702,
                    0
                ]
            },
            "properties": {
                "name": "cinemax"
            }
        },
        {
            "type": "Feature",
            "geometry": {
                "type": "Point",
                "coordinates": [
                    44.42102972092245,
                    40.13346937122859,
                    0
                ]
            },
            "properties": {
                "name": "hov717"
            }
        },
        {
            "type": "Feature",
            "geometry": {
                "type": "Point",
                "coordinates": [
                    44.42024396448016,
                    40.12555758148552,
                    0
                ]
            },
            "properties": {
                "name": "sargis-64"
            }
        },
        {
            "type": "Feature",
            "geometry": {
                "type": "Point",
                "coordinates": [
                    44.4209673626479,
                    40.12952628641438,
                    0
                ]
            },
            "properties": {
                "name": "roza"
            }
        },
        {
            "type": "Feature",
            "geometry": {
                "type": "Point",
                "coordinates": [
                    44.41841747334882,
                    40.12365342665008,
                    0
                ]
            },
            "properties": {
                "name": "barcelona"
            }
        },
        {
            "type": "Feature",
            "geometry": {
                "type": "Point",
                "coordinates": [
                    44.42142580258437,
                    40.13321702168503,
                    0
                ]
            },
            "properties": {
                "name": "elenmilen"
            }
        },
        {
            "type": "Feature",
            "geometry": {
                "type": "Point",
                "coordinates": [
                    44.41933056791583,
                    40.12417676007439,
                    0
                ]
            },
            "properties": {
                "name": "mxitar"
            }
        },
        {
            "type": "Feature",
            "geometry": {
                "type": "Point",
                "coordinates": [
                    44.42177507611867,
                    40.13190229063005,
                    0
                ]
            },
            "properties": {
                "name": "vanush"
            }
        },
        {
            "type": "Feature",
            "geometry": {
                "type": "Point",
                "coordinates": [
                    44.42064117795273,
                    40.13408573455283,
                    0
                ]
            },
            "properties": {
                "name": "vaako89"
            }
        },
        {
            "type": "Feature",
            "geometry": {
                "type": "Point",
                "coordinates": [
                    44.42436064734422,
                    40.126266974967,
                    0
                ]
            },
            "properties": {
                "name": "varo"
            }
        },
        {
            "type": "Feature",
            "geometry": {
                "type": "Point",
                "coordinates": [
                    44.41976804852085,
                    40.13109104783676,
                    0
                ]
            },
            "properties": {
                "name": "aqojan"
            }
        },
        {
            "type": "Feature",
            "geometry": {
                "type": "Point",
                "coordinates": [
                    44.41207317011087,
                    40.12312698522239,
                    0
                ]
            },
            "properties": {
                "name": "sergey95"
            }
        },
        {
            "type": "Feature",
            "geometry": {
                "type": "Point",
                "coordinates": [
                    44.42078626030924,
                    40.13234027552355,
                    0
                ]
            },
            "properties": {
                "name": "noyem"
            }
        },
        {
            "type": "Feature",
            "geometry": {
                "type": "Point",
                "coordinates": [
                    44.4203636263643,
                    40.13291366056841,
                    0
                ]
            },
            "properties": {
                "name": "vardanova"
            }
        },
        {
            "type": "Feature",
            "geometry": {
                "type": "Point",
                "coordinates": [
                    44.42074290214936,
                    40.13264505935904,
                    0
                ]
            },
            "properties": {
                "name": "gayush94"
            }
        },
        {
            "type": "Feature",
            "geometry": {
                "type": "Point",
                "coordinates": [
                    44.41157076214712,
                    40.12297219075793,
                    0
                ]
            },
            "properties": {
                "name": "jaboyan"
            }
        },
        {
            "type": "Feature",
            "geometry": {
                "type": "Point",
                "coordinates": [
                    44.40925098198832,
                    40.12273468909971,
                    0
                ]
            },
            "properties": {
                "name": "mraz"
            }
        },
        {
            "type": "Feature",
            "geometry": {
                "type": "Point",
                "coordinates": [
                    44.42145118869505,
                    40.12597328241552,
                    0
                ]
            },
            "properties": {
                "name": "nairi"
            }
        },
        {
            "type": "Feature",
            "geometry": {
                "type": "Point",
                "coordinates": [
                    44.41229123554081,
                    40.12569833524623,
                    0
                ]
            },
            "properties": {
                "name": "lkhachat"
            }
        },
        {
            "type": "Feature",
            "geometry": {
                "type": "Point",
                "coordinates": [
                    44.41811211716332,
                    40.12717521351043,
                    0
                ]
            },
            "properties": {
                "name": "rockstar"
            }
        },
        {
            "type": "Feature",
            "geometry": {
                "type": "Point",
                "coordinates": [
                    44.41615702888155,
                    40.12386924450653,
                    0
                ]
            },
            "properties": {
                "name": "biolog"
            }
        },
        {
            "type": "Feature",
            "geometry": {
                "type": "Point",
                "coordinates": [
                    44.42255507910048,
                    40.12820073524337,
                    0
                ]
            },
            "properties": {
                "name": "qerob"
            }
        },
        {
            "type": "Feature",
            "geometry": {
                "type": "Point",
                "coordinates": [
                    44.41984011540519,
                    40.12925567918268,
                    0
                ]
            },
            "properties": {
                "name": "asul"
            }
        },
        {
            "type": "Feature",
            "geometry": {
                "type": "Point",
                "coordinates": [
                    44.40918535220515,
                    40.12315833292389,
                    0
                ]
            },
            "properties": {
                "name": "vazir"
            }
        },
        {
            "type": "Feature",
            "geometry": {
                "type": "Point",
                "coordinates": [
                    44.41656576080708,
                    40.12660746905803,
                    0
                ]
            },
            "properties": {
                "name": "melsida"
            }
        },
        {
            "type": "Feature",
            "geometry": {
                "type": "Point",
                "coordinates": [
                    44.41543866225954,
                    40.12480898980551,
                    0
                ]
            },
            "properties": {
                "name": "sepo"
            }
        },
        {
            "type": "Feature",
            "geometry": {
                "type": "Point",
                "coordinates": [
                    44.4150027789123,
                    40.12525692898051,
                    0
                ]
            },
            "properties": {
                "name": "sartig"
            }
        },
        {
            "type": "Feature",
            "geometry": {
                "type": "Point",
                "coordinates": [
                    44.41423341656294,
                    40.12297130319929,
                    0
                ]
            },
            "properties": {
                "name": "benik"
            }
        },
        {
            "type": "Feature",
            "geometry": {
                "type": "Point",
                "coordinates": [
                    44.4140250859233,
                    40.12290859181517,
                    0
                ]
            },
            "properties": {
                "name": "luys"
            }
        },
        {
            "type": "Feature",
            "geometry": {
                "type": "Point",
                "coordinates": [
                    44.42207282699203,
                    40.13149900149558,
                    0
                ]
            },
            "properties": {
                "name": "hripsime"
            }
        },
        {
            "type": "Feature",
            "geometry": {
                "type": "Point",
                "coordinates": [
                    44.42034111500734,
                    40.12965764775147,
                    0
                ]
            },
            "properties": {
                "name": "avet"
            }
        },
        {
            "type": "Feature",
            "geometry": {
                "type": "Point",
                "coordinates": [
                    44.42004826201966,
                    40.12944841927249,
                    0
                ]
            },
            "properties": {
                "name": "sipan"
            }
        },
        {
            "type": "Feature",
            "geometry": {
                "type": "Point",
                "coordinates": [
                    44.41355508523231,
                    40.12350762171814,
                    0
                ]
            },
            "properties": {
                "name": "siranush"
            }
        },
        {
            "type": "Feature",
            "geometry": {
                "type": "Point",
                "coordinates": [
                    44.42167278383673,
                    40.12625197612812,
                    0
                ]
            },
            "properties": {
                "name": "sonairina"
            }
        },
        {
            "type": "Feature",
            "geometry": {
                "type": "Point",
                "coordinates": [
                    44.42360670870793,
                    40.12950912410368,
                    0
                ]
            },
            "properties": {
                "name": "mariam78"
            }
        },
        {
            "type": "Feature",
            "geometry": {
                "type": "Point",
                "coordinates": [
                    44.4125677086011,
                    40.12134082877095,
                    0
                ]
            },
            "properties": {
                "name": "Aramais"
            }
        },
        {
            "type": "Feature",
            "geometry": {
                "type": "Point",
                "coordinates": [
                    44.40948995064172,
                    40.12074345635046,
                    0
                ]
            },
            "properties": {
                "name": "syuzi2004"
            }
        },
        {
            "type": "Feature",
            "geometry": {
                "type": "Point",
                "coordinates": [
                    44.40925123381756,
                    40.12067355574051,
                    0
                ]
            },
            "properties": {
                "name": "fayzo97"
            }
        },
        {
            "type": "Feature",
            "geometry": {
                "type": "Point",
                "coordinates": [
                    44.41017899013453,
                    40.12496859501808,
                    0
                ]
            },
            "properties": {
                "name": "robert80"
            }
        },
        {
            "type": "Feature",
            "geometry": {
                "type": "Point",
                "coordinates": [
                    44.4097502673146,
                    40.12455851618783,
                    0
                ]
            },
            "properties": {
                "name": "chi hishvum"
            }
        },
        {
            "type": "Feature",
            "geometry": {
                "type": "Point",
                "coordinates": [
                    44.415713259367,
                    40.12606026290312,
                    0
                ]
            },
            "properties": {
                "name": "maga97"
            }
        },
        {
            "type": "Feature",
            "geometry": {
                "type": "Point",
                "coordinates": [
                    44.42292342860919,
                    40.13300016465905,
                    0
                ]
            },
            "properties": {
                "name": "armo88"
            }
        },
        {
            "type": "Feature",
            "geometry": {
                "type": "Point",
                "coordinates": [
                    44.41709159809751,
                    40.12612034924045,
                    0
                ]
            },
            "properties": {
                "name": "sashik"
            }
        },
        {
            "type": "Feature",
            "geometry": {
                "type": "Point",
                "coordinates": [
                    44.4168283169537,
                    40.12599016348464,
                    0
                ]
            },
            "properties": {
                "name": "anahit51"
            }
        },
        {
            "type": "Feature",
            "geometry": {
                "type": "Point",
                "coordinates": [
                    44.416977960792,
                    40.12562303147792,
                    0
                ]
            },
            "properties": {
                "name": "artak81"
            }
        },
        {
            "type": "Feature",
            "geometry": {
                "type": "Point",
                "coordinates": [
                    44.41729492692144,
                    40.12567061866587,
                    0
                ]
            },
            "properties": {
                "name": "karinenorik"
            }
        },
        {
            "type": "Feature",
            "geometry": {
                "type": "Point",
                "coordinates": [
                    44.41714274221715,
                    40.12514929914561,
                    0
                ]
            },
            "properties": {
                "name": "mariam92"
            }
        },
        {
            "type": "Feature",
            "geometry": {
                "type": "Point",
                "coordinates": [
                    44.41746877041886,
                    40.12525073837275,
                    0
                ]
            },
            "properties": {
                "name": "adizero99"
            }
        },
        {
            "type": "Feature",
            "geometry": {
                "type": "Point",
                "coordinates": [
                    44.42134164922442,
                    40.12555138282314,
                    0
                ]
            },
            "properties": {
                "name": "serob92"
            }
        },
        {
            "type": "Feature",
            "geometry": {
                "type": "Point",
                "coordinates": [
                    44.42255265073207,
                    40.12801348469332,
                    0
                ]
            },
            "properties": {
                "name": "argam83"
            }
        },
        {
            "type": "Feature",
            "geometry": {
                "type": "Point",
                "coordinates": [
                    44.41984515534368,
                    40.12772799609511,
                    0
                ]
            },
            "properties": {
                "name": "khachik2003"
            }
        },
        {
            "type": "Feature",
            "geometry": {
                "type": "Point",
                "coordinates": [
                    44.41196174340773,
                    40.12308707588563,
                    0
                ]
            },
            "properties": {
                "name": "karen98"
            }
        },
        {
            "type": "Feature",
            "geometry": {
                "type": "Point",
                "coordinates": [
                    44.41034429389149,
                    40.12291147448794,
                    0
                ]
            },
            "properties": {
                "name": "armen72"
            }
        },
        {
            "type": "Feature",
            "geometry": {
                "type": "Point",
                "coordinates": [
                    44.4130332083817,
                    40.12360550693419,
                    0
                ]
            },
            "properties": {
                "name": "armen78"
            }
        },
        {
            "type": "Feature",
            "geometry": {
                "type": "Point",
                "coordinates": [
                    44.42085790104201,
                    40.13253163738311,
                    0
                ]
            },
            "properties": {
                "name": "alikan63"
            }
        },
        {
            "type": "Feature",
            "geometry": {
                "type": "Point",
                "coordinates": [
                    44.42094867230411,
                    40.13215147926107,
                    0
                ]
            },
            "properties": {
                "name": "taron2010"
            }
        },
        {
            "type": "Feature",
            "geometry": {
                "type": "Point",
                "coordinates": [
                    44.41278487505983,
                    40.12254449166199,
                    0
                ]
            },
            "properties": {
                "name": "ashot79"
            }
        },
        {
            "type": "Feature",
            "geometry": {
                "type": "Point",
                "coordinates": [
                    44.42031442439863,
                    40.12659913058597,
                    0
                ]
            },
            "properties": {
                "name": "covak77"
            }
        },
        {
            "type": "Feature",
            "geometry": {
                "type": "Point",
                "coordinates": [
                    44.4107973639948,
                    40.12111405946211,
                    0
                ]
            },
            "properties": {
                "name": "artak1981"
            }
        },
        {
            "type": "Feature",
            "geometry": {
                "type": "Point",
                "coordinates": [
                    44.41075258813183,
                    40.12087504930338,
                    0
                ]
            },
            "properties": {
                "name": "hakob95"
            }
        },
        {
            "type": "Feature",
            "geometry": {
                "type": "Point",
                "coordinates": [
                    44.41939900231536,
                    40.12891203420345,
                    0
                ]
            },
            "properties": {
                "name": "seriarm"
            }
        },
        {
            "type": "Feature",
            "geometry": {
                "type": "Point",
                "coordinates": [
                    44.41076569977186,
                    40.12204384640026,
                    0
                ]
            },
            "properties": {
                "name": "myasnik74"
            }
        },
        {
            "type": "Feature",
            "geometry": {
                "type": "Point",
                "coordinates": [
                    44.41034118004121,
                    40.12265591457602,
                    0
                ]
            },
            "properties": {
                "name": "vazir71"
            }
        },
        {
            "type": "Feature",
            "geometry": {
                "type": "Point",
                "coordinates": [
                    44.42133067954671,
                    40.13490193313128,
                    0
                ]
            },
            "properties": {
                "name": "nerses91"
            }
        },
        {
            "type": "Feature",
            "geometry": {
                "type": "Point",
                "coordinates": [
                    44.41034788421646,
                    40.12401617816319,
                    0
                ]
            },
            "properties": {
                "name": "temur76"
            }
        },
        {
            "type": "Feature",
            "geometry": {
                "type": "Point",
                "coordinates": [
                    44.42010225518136,
                    40.12655690986636,
                    0
                ]
            },
            "properties": {
                "name": "petros98"
            }
        },
        {
            "type": "Feature",
            "geometry": {
                "type": "Point",
                "coordinates": [
                    44.41251541603835,
                    40.1232461886024,
                    0
                ]
            },
            "properties": {
                "name": "mariam88"
            }
        },
        {
            "type": "Feature",
            "geometry": {
                "type": "Point",
                "coordinates": [
                    44.42117164399648,
                    40.12733873008312,
                    0
                ]
            },
            "properties": {
                "name": "hamlet1973"
            }
        },
        {
            "type": "Feature",
            "geometry": {
                "type": "Point",
                "coordinates": [
                    44.4170271273757,
                    40.12628410588116,
                    0
                ]
            },
            "properties": {
                "name": "jora5555"
            }
        },
        {
            "type": "Feature",
            "geometry": {
                "type": "Point",
                "coordinates": [
                    44.42236971995027,
                    40.13247613847364,
                    0
                ]
            },
            "properties": {
                "name": "gayane98"
            }
        },
        {
            "type": "Feature",
            "geometry": {
                "type": "Point",
                "coordinates": [
                    44.42171650689914,
                    40.13452123037965,
                    0
                ]
            },
            "properties": {
                "name": "sipan95"
            }
        },
        {
            "type": "Feature",
            "geometry": {
                "type": "Point",
                "coordinates": [
                    44.41760066498068,
                    40.1268397721157,
                    0
                ]
            },
            "properties": {
                "name": "varujan71"
            }
        },
        {
            "type": "Feature",
            "geometry": {
                "type": "Point",
                "coordinates": [
                    44.42029975235599,
                    40.13063311434156,
                    0
                ]
            },
            "properties": {
                "name": "arusik94"
            }
        },
        {
            "type": "Feature",
            "geometry": {
                "type": "Point",
                "coordinates": [
                    44.40965610361866,
                    40.12253428205771,
                    0
                ]
            },
            "properties": {
                "name": "romik08"
            }
        },
        {
            "type": "Feature",
            "geometry": {
                "type": "Point",
                "coordinates": [
                    44.42160977338101,
                    40.24911277660447,
                    0
                ]
            },
            "properties": {
                "name": "zina89"
            }
        },
        {
            "type": "Feature",
            "geometry": {
                "type": "Point",
                "coordinates": [
                    44.42124994837704,
                    40.12902075368651,
                    0
                ]
            },
            "properties": {
                "name": "arcvik62"
            }
        },
        {
            "type": "Feature",
            "geometry": {
                "type": "Point",
                "coordinates": [
                    44.42376132302998,
                    40.12536303023548,
                    0
                ]
            },
            "properties": {
                "name": "Gor08"
            }
        },
        {
            "type": "Feature",
            "geometry": {
                "type": "Point",
                "coordinates": [
                    44.42327759910111,
                    40.12519360955157,
                    0
                ]
            },
            "properties": {
                "name": "Anan9917"
            }
        },
        {
            "type": "Feature",
            "geometry": {
                "type": "Point",
                "coordinates": [
                    44.41996439556026,
                    40.12744016312095,
                    0
                ]
            },
            "properties": {
                "name": "hazeyan"
            }
        },
        {
            "type": "Feature",
            "geometry": {
                "type": "LineString",
                "coordinates": [
                    [
                        44.4199858081306,
                        40.12745724861966,
                        0
                    ],
                    [
                        44.4197993144934,
                        40.12775185748534,
                        0
                    ],
                    [
                        44.41967097539403,
                        40.12796161267644,
                        0
                    ],
                    [
                        44.41932623986575,
                        40.12827827383408,
                        0
                    ],
                    [
                        44.41926373046336,
                        40.12880161809535,
                        0
                    ],
                    [
                        44.42033403652428,
                        40.12966522816208,
                        0
                    ],
                    [
                        44.42054701697416,
                        40.13047915694424,
                        0
                    ],
                    [
                        44.42093524606407,
                        40.13021802942522,
                        0
                    ],
                    [
                        44.42052565121641,
                        40.13048731304858,
                        0
                    ],
                    [
                        44.41966028332735,
                        40.13107470021226,
                        0
                    ]
                ]
            },
            "properties": {
                "name": "101.53"
            }
        },
        {
            "type": "Feature",
            "geometry": {
                "type": "LineString",
                "coordinates": [
                    [
                        44.42002347015939,
                        40.12940982731338,
                        0
                    ],
                    [
                        44.41962512417206,
                        40.12998907946157,
                        0
                    ],
                    [
                        44.41921416696905,
                        40.13025104889746,
                        0
                    ],
                    [
                        44.41961147992861,
                        40.12999689572025,
                        0
                    ],
                    [
                        44.41883210592896,
                        40.129625409969,
                        0
                    ]
                ]
            },
            "properties": {
                "name": "101.53"
            }
        },
        {
            "type": "Feature",
            "geometry": {
                "type": "LineString",
                "coordinates": [
                    [
                        44.42097003946889,
                        40.12922409168902,
                        0
                    ],
                    [
                        44.42116739263608,
                        40.1273976928868,
                        0
                    ],
                    [
                        44.42152217890666,
                        40.12707380710808,
                        0
                    ],
                    [
                        44.42157908797432,
                        40.12670243897335,
                        0
                    ],
                    [
                        44.42157284402862,
                        40.12672148937845,
                        0
                    ],
                    [
                        44.42157908432596,
                        40.12670720219582,
                        0
                    ],
                    [
                        44.42167697949247,
                        40.12588595896332,
                        0
                    ],
                    [
                        44.4215728407514,
                        40.12672625283125,
                        0
                    ],
                    [
                        44.42128656238043,
                        40.12634029957682,
                        0
                    ],
                    [
                        44.42136343621329,
                        40.12590096916329,
                        0
                    ],
                    [
                        44.42134543255691,
                        40.12553325355384,
                        0
                    ],
                    [
                        44.42024710354862,
                        40.12553268711876,
                        0
                    ]
                ]
            },
            "properties": {
                "name": "101.53"
            }
        },
        {
            "type": "Feature",
            "geometry": {
                "type": "LineString",
                "coordinates": [
                    [
                        44.4199821582773,
                        40.12743754696771,
                        0
                    ],
                    [
                        44.42108070108893,
                        40.12775279722693,
                        0
                    ]
                ]
            },
            "properties": {
                "name": "101.53"
            }
        },
        {
            "type": "Feature",
            "geometry": {
                "type": "LineString",
                "coordinates": [
                    [
                        44.41999592560521,
                        40.12744936355609,
                        0
                    ],
                    [
                        44.41969830689626,
                        40.12669488183269,
                        0
                    ],
                    [
                        44.42006438325524,
                        40.1265483483804,
                        0
                    ],
                    [
                        44.41968053886821,
                        40.12669487786623,
                        0
                    ],
                    [
                        44.41885106559025,
                        40.12645237402053,
                        0
                    ],
                    [
                        44.4184674848109,
                        40.12622377127457,
                        0
                    ],
                    [
                        44.41827798380236,
                        40.12674036287448,
                        0
                    ],
                    [
                        44.41810657246422,
                        40.12712601552613,
                        0
                    ],
                    [
                        44.41753536034342,
                        40.12683779891201,
                        0
                    ],
                    [
                        44.41672255646223,
                        40.12673810723869,
                        0
                    ],
                    [
                        44.41652249959284,
                        40.12657074775925,
                        0
                    ],
                    [
                        44.41572630674136,
                        40.12609961457895,
                        0
                    ],
                    [
                        44.4165236212335,
                        40.12658021257597,
                        0
                    ],
                    [
                        44.41644488513327,
                        40.12743473065522,
                        0
                    ],
                    [
                        44.41561384289879,
                        40.12716502249488,
                        0
                    ],
                    [
                        44.41492359023531,
                        40.12702214469937,
                        0
                    ]
                ]
            },
            "properties": {
                "name": "101.53"
            }
        },